[{"address":null,"city":"West Springfield","country":"USA","gmaps_place_id":null,"gmaps_url":null,"key":"frc1027","lat":null,"lng":null,"location_name":null,"motto":null,"name":"Mass-West Construction&West Springfield High School","nickname":"Mechatronic Maniacs","postal_code":"01089","rookie_year":2003,"school_name":"West Springfield High School","state_prov":"Massachusetts","team_number":1027,"website":"http://www.team1027.com"},{"address":null,"city":"Wolcott","country":"USA","gmaps_place_id":null,"gmaps_url":null,"key":"frc1071","lat":null,"lng":null,"location_name":null,"motto":null,"name":"Wolcott Public Schools/Pratt and Whitney/Lockheed Martin/Mattatuck Scrap Metal&Wolcott High School","nickname":"Team MAX","postal_code":"06716","rookie_year":2003,"school_name":"Wolcott High School","state_prov":"Connecticut","team_number":1071,"website":"http://www.max1071.com"},{"address":null,"city":"Hollis","country":"USA","gmaps_place_id":null,"gmaps_url":null,"key":"frc1073","lat":null,"lng":null,"location_name":null,"motto":null,"name":"Hollis-Brookline High School/Viasat/BAE Systems/FIRST New Hampshire/New Hampshire Department of Education/Amazon Robotics/Southern New England Admirals: Semi-Pro Football Team/Raytheon/Rockwell Automation/Intuitive Foundation&Hollis Brookline High School&Family/Community","nickname":"The Force Team","postal_code":"03049","rookie_year":2003,"school_name":"Family/Community & Hollis Brookline High School","state_prov":"New Hampshire","team_number":1073,"website":"http://www.frc1073.org"},{"address":null,"city":"Brookfield","country":"USA","gmaps_place_id":null,"gmaps_url":null,"key":"frc1099","lat":null,"lng":null,"location_name":null,"motto":null,"name":"NASA/Lockheed Martin/Photronics&Brookfield High School","nickname":"DiscoTechs","postal_code":"06804","rookie_year":2003,"school_name":"Brookfield High School","state_prov":"Connecticut","team_number":1099,"website":"http://www.discotechs.org"},{"address":null,"city":"Avon","country":"USA","gmaps_place_id":null,"gmaps_url":null,"key":"frc1124","lat":null,"lng":null,"location_name":null,"motto":null,"name":"Avon High School&Avon High School","nickname":"UberBots","postal_code":"06001","rookie_year":2003,"school_name":"Avon High School","state_prov":"Connecticut","team_number":1124,"website":"http://www.uberbots.org"},{"address":null,"city":"Houston","country":"USA","gmaps_place_id":null,"gmaps_url":null,"key":"frc118","lat":null,"lng":null,"location_name":null,"motto":null,"name":"NASA-Johnson Space Center & Clear Creek Independent School District","nickname":"Robonauts","postal_code":"77573","rookie_year":1997,"school_name":"Clear Creek Independent School District","state_prov":"Texas","team_number":118,"website":"http://www.robonauts.org"},{"address":null,"city":"Clinton","country":"USA","gmaps_place_id":null,"gmaps_url":null,"key":"frc126","lat":null,"lng":null,"location_name":null,"motto":null,"name":"Jabil Healthcare&Clinton High School","nickname":"Gael Force","postal_code":"01510","rookie_year":1992,"school_name":"Clinton High School","state_prov":"Massachusetts","team_number":126,"website":"https://team126.org"},{"address":null,"city":"Albany","country":"USA","gmaps_place_id":null,"gmaps_url":null,"key":"frc1493","lat":null,"lng":null,"location_name":null,"motto":null,"name":"National Grid/Gene Haas Foundation/Albany Public Schools/Simmons Machine Tool Corporation/Turner Construction/International Brotherhood of Electrical Workers/CDPHP/RPI Electrical, Computer and Systems Engineering/Albany Booster Club/South End Powder Coating/Phillips Hardware Stores/Stewart's Shops/AM&J Digital Graphic Solutions/Price Chopper/Curtis Lumber&Albany High School","nickname":"Falcons","postal_code":"12203","rookie_year":2004,"school_name":"Albany High School","state_prov":"New York","team_number":1493,"website":"http://www.team1493.com/index.html"},{"address":null,"city":"Penfield","country":"USA","gmaps_place_id":null,"gmaps_url":null,"key":"frc1511","lat":null,"lng":null,"location_name":null,"motto":null,"name":"L3Harris/Lee & Hayes/Bosch/Haas Foundation/AMD&Penfield High School","nickname":"Rolling Thunder","postal_code":"14526","rookie_year":2005,"school_name":"Penfield High School","state_prov":"New York","team_number":1511,"website":"http://www.penfieldrobotics.com/"},{"address":null,"city":"Berlin","country":"USA","gmaps_place_id":null,"gmaps_url":null,"key":"frc155","lat":null,"lng":null,"location_name":null,"motto":null,"name":"Raytheon Technologies, Pratt & Whitney Division,Middletown, CT/Berlin Public Schools, Berlin, Ct&Family/Community","nickname":"The TechnoNuts","postal_code":"06037","rookie_year":1994,"school_name":"Family/Community","state_prov":"Connecticut","team_number":155,"website":"http://usfirst.berlinwall.org/"},{"address":null,"city":"Victor","country":"USA","gmaps_place_id":null,"gmaps_url":null,"key":"frc1559","lat":null,"lng":null,"location_name":null,"motto":null,"name":"General Motors/Xerox Corporation/Plug Power/Lockheed-Martin/SEI Design/C&R Vision/The Patel Family/MiniTec/New Scale Technology&Victor High School","nickname":"Devil Tech","postal_code":"14564","rookie_year":2005,"school_name":"Victor High School","state_prov":"New York","team_number":1559,"website":"http://victorrobotics.org"},{"address":null,"city":"Hudson","country":"USA","gmaps_place_id":null,"gmaps_url":null,"key":"frc1665","lat":null,"lng":null,"location_name":null,"motto":null,"name":"Richard and Jane Katzman Foundation / Hudson Teachers Association / Hudson City School District / 21st Century Afterschool Program / Hudson River Bank and Trust Foundation / Berkshire Taconic Foundation / Asian Cafe / DigiFabShop & Hudson High School","nickname":"Weapons of Mass Construction","postal_code":"12534","rookie_year":2005,"school_name":"Hudson High School","state_prov":"New York","team_number":1665,"website":"https://sites.google.com/hudsoncsd.org/frc-team-1665/home"},{"address":null,"city":"Colchester","country":"USA","gmaps_place_id":null,"gmaps_url":null,"key":"frc1699","lat":null,"lng":null,"location_name":null,"motto":null,"name":"Dominion Energy /Raytheon Technologies/ABB/Ron Goldstein, Attorney at Law/Tsunami  Solutions/Sunnstone Construction/InCord&Bacon Academy","nickname":"Robocats","postal_code":"06415","rookie_year":2005,"school_name":"Bacon Academy","state_prov":"Connecticut","team_number":1699,"website":"http://robocats.wix.com/team1699robocats"},{"address":null,"city":"Tolland","country":"USA","gmaps_place_id":null,"gmaps_url":null,"key":"frc173","lat":null,"lng":null,"location_name":null,"motto":null,"name":"Triumph/Pratt & Whitney, A Raytheon Technologies Company/Intuitive Foundation/CNC Software & Ellington High School & Tolland High School","nickname":"RAGE Robotics \u2699\ufe0f","postal_code":"06084","rookie_year":1995,"school_name":"Tolland High School & Ellington High School","state_prov":"Connecticut","team_number":173,"website":"http://ragerobotics.com"},{"address":null,"city":"Ledyard","country":"USA","gmaps_place_id":null,"gmaps_url":null,"key":"frc1740","lat":null,"lng":null,"location_name":null,"motto":null,"name":"Dominion Millstone Power Station&Ledyard High School","nickname":"Cyber Colonels","postal_code":"06339","rookie_year":2006,"school_name":"Ledyard High School","state_prov":"Connecticut","team_number":1740,"website":"http://lcc1740.net/"},{"address":null,"city":"Enfield","country":"USA","gmaps_place_id":null,"gmaps_url":null,"key":"frc175","lat":null,"lng":null,"location_name":null,"motto":null,"name":"LifeWorks&Enfield High School","nickname":"Buzz Robotics","postal_code":"06082","rookie_year":1996,"school_name":"Enfield High School","state_prov":"Connecticut","team_number":175,"website":"http://buzzrobotics.org"},{"address":null,"city":"Windsor Locks","country":"USA","gmaps_place_id":null,"gmaps_url":null,"key":"frc176","lat":null,"lng":null,"location_name":null,"motto":null,"name":"Illinois Tool Works (ITW)/Amiel P. Zak Fund/Collins Aerospace & 4-H & Connecticut 4-H Foundation, Inc. & Windsor Locks High School & Suffield High School","nickname":"Aces High","postal_code":"06096","rookie_year":1996,"school_name":"Connecticut 4-H Foundation, Inc. & 4-H & Windsor Locks High School & Suffield High School","state_prov":"Connecticut","team_number":176,"website":"https://www.facebook.com/AcesHigh176/"},{"address":null,"city":"South Windsor","country":"USA","gmaps_place_id":null,"gmaps_url":null,"key":"frc177","lat":null,"lng":null,"location_name":null,"motto":null,"name":"Apple/South Windsor Public Schools/NASA/Pratt & Whitney/Protedyne/Ensign-Bickford Aerospace & Defense/TE Connectivity/South Windsor Rotary&South Windsor High School","nickname":"Bobcat Robotics","postal_code":"06074","rookie_year":1995,"school_name":"South Windsor High School","state_prov":"Connecticut","team_number":177,"website":"http://www.bobcatrobotics.org"},{"address":null,"city":"Farmington","country":"USA","gmaps_place_id":null,"gmaps_url":null,"key":"frc178","lat":null,"lng":null,"location_name":null,"motto":null,"name":"Haas Automation, Inc./Raytheon Technologies/Sikorsky Aircraft/Irina Bezsonova/Farmington Friends of Robotics&Farmington High School","nickname":"The 2nd Law Enforcers","postal_code":"06032","rookie_year":1997,"school_name":"Farmington High School","state_prov":"Connecticut","team_number":178,"website":"http://www.farmingtonrobotics.org"},{"address":null,"city":"Litchfield","country":"USA","gmaps_place_id":null,"gmaps_url":null,"key":"frc1784","lat":null,"lng":null,"location_name":null,"motto":null,"name":"UTCHQ / Protedyne / SSyD / Litchfield Education Foundation / Litchfield Lions & Litchfield High School & Wamogo High School","nickname":"Litchbots","postal_code":"06759","rookie_year":2006,"school_name":null,"state_prov":"CT","team_number":1784,"website":"http://sites.google.com/site/litchbotrobotics/Downhome"},{"address":null,"city":"Hartford","country":"USA","gmaps_place_id":null,"gmaps_url":null,"key":"frc181","lat":null,"lng":null,"location_name":null,"motto":null,"name":"Raytheon Technologies/NASA/Stanley Black & Decker/The Stokosa Family & Hartford Public High School & Pathways Academy Tech & Design","nickname":"Birds Of Prey","postal_code":"06106","rookie_year":1998,"school_name":"Hartford Public High School & Pathways Academy Tech & Design","state_prov":"Connecticut","team_number":181,"website":"http://www.birdsofprey181.org"},{"address":null,"city":"New York","country":"USA","gmaps_place_id":null,"gmaps_url":null,"key":"frc1880","lat":null,"lng":null,"location_name":null,"motto":null,"name":"East Harlem Tutorial Program/Bloomberg/PwC/Pershing Square Foundation/ConEdison/Mt. Sinai Health Systems & NASA","nickname":"Warriors of East Harlem","postal_code":"10029","rookie_year":2006,"school_name":"NASA","state_prov":"New York","team_number":1880,"website":"http://ehtprobotics.org/"},{"address":null,"city":"Contoocook","country":"USA","gmaps_place_id":null,"gmaps_url":null,"key":"frc1922","lat":null,"lng":null,"location_name":null,"motto":null,"name":"New Hampshire Department of Education/Osram Sylvania/Granite State Credit Union/Autodesk, Inc.&John Stark Regional High Sch&Hopkinton Middle School&Hopkinton High School","nickname":"Oz-Ram","postal_code":"03229","rookie_year":2006,"school_name":"Hopkinton Middle School & Hopkinton High School & John Stark Regional High Sch","state_prov":"New Hampshire","team_number":1922,"website":"http://www.ozram1922.org"},{"address":null,"city":"Southington","country":"USA","gmaps_place_id":null,"gmaps_url":null,"key":"frc195","lat":null,"lng":null,"location_name":null,"motto":null,"name":"Mohawk Northeast/Otis/Lockheed Martin/Henkel/Raytheon Technologies/Light Metals Coloring &Southington High School","nickname":"CyberKnights","postal_code":"06489","rookie_year":1998,"school_name":"Southington High School","state_prov":"Connecticut","team_number":195,"website":"http://www.team195.com"},{"address":null,"city":"Hartford","country":"USA","gmaps_place_id":null,"gmaps_url":null,"key":"frc1991","lat":null,"lng":null,"location_name":null,"motto":null,"name":"Comis/Hillside Automotive Center/Raytheon Technologies/Hartford Public Schools/Solidworks/Curtis Packaging/Law Office of John Q Gale LLC/City of Hartford/GKN Aerospace/EDRO/Satellite Tool Machine Company/Vertafore/Big-Y Supermarkets&4-H&University High School","nickname":"Dragons","postal_code":"06112","rookie_year":2007,"school_name":"4-H & University High School","state_prov":"Connecticut","team_number":1991,"website":"https://frc1991.github.io/"},{"address":null,"city":"Clifton Park","country":"USA","gmaps_place_id":null,"gmaps_url":null,"key":"frc20","lat":null,"lng":null,"location_name":null,"motto":null,"name":"GLOBALFOUNDRIES - Town of Malta Foundation/Bilinski Sausage Manufacturing Co./Advanced Information Management/Rensselaer Polytechnic Institute/Zelco Technology Advisors&Shenendehowa High School","nickname":"The Rocketeers","postal_code":"12065","rookie_year":1992,"school_name":"Shenendehowa High School","state_prov":"New York","team_number":20,"website":"http://www.team20.com"},{"address":null,"city":"Guilford","country":"USA","gmaps_place_id":null,"gmaps_url":null,"key":"frc2067","lat":null,"lng":null,"location_name":null,"motto":null,"name":"Bishop's Orchards/Pratt  & Whitney/Rockwell Automation/Lockheed/Pfizer/Medtronic/Moroso Performance Products&4-H&4H","nickname":"Apple Pi","postal_code":"06437","rookie_year":2007,"school_name":"4H & 4-H","state_prov":"Connecticut","team_number":2067,"website":"http://www.applepirobotics.org"},{"address":null,"city":"Groton","country":"USA","gmaps_place_id":null,"gmaps_url":null,"key":"frc2168","lat":null,"lng":null,"location_name":null,"motto":null,"name":"UBS Group/Pfizer/DoDSTEM/Charter Oak Credit Union/Groton Utilities/R-D Manufacturing/The Hillery Company/J Steele Services/Applied Physical Sciences/Groton Board of Education&Robert E Fitch High School","nickname":"Aluminum Falcons","postal_code":"06340","rookie_year":2007,"school_name":"Robert E Fitch High School","state_prov":"Connecticut","team_number":2168,"website":"https://www.frc2168.com"},{"address":null,"city":"Glastonbury","country":"USA","gmaps_place_id":null,"gmaps_url":null,"key":"frc2170","lat":null,"lng":null,"location_name":null,"motto":null,"name":"Raytheon Technologies Corporation/Glastonbury Board of Education&Glastonbury High School","nickname":"Galvanized Guardians","postal_code":"06033","rookie_year":2007,"school_name":"Glastonbury High School","state_prov":"Connecticut","team_number":2170,"website":"https://sites.google.com/glastonburyus.org/ghs-first-robotics/"},{"address":null,"city":"Meriden","country":"USA","gmaps_place_id":null,"gmaps_url":null,"key":"frc228","lat":null,"lng":null,"location_name":null,"motto":null,"name":"Meriden YMCA/Raytheon Technologies/Trail of Terror/R&D Precision&YMCA","nickname":"GUS","postal_code":"06450","rookie_year":1999,"school_name":"YMCA","state_prov":"Connecticut","team_number":228,"website":"http://www.team228.org"},{"address":null,"city":"Potsdam","country":"USA","gmaps_place_id":null,"gmaps_url":null,"key":"frc229","lat":null,"lng":null,"location_name":null,"motto":null,"name":"Clarkson University / E/One / Lockheed Martin / Stewart's Shops / Italian Affair / SeaComm Federal Credit Union / Massena Savings and Loan / Verizon / Jefford's Steel and Engineering Company / Corning & Norwood-Norfolk Sr High School & Massena High School","nickname":"Division By Zero","postal_code":"13699","rookie_year":1999,"school_name":"Norwood-Norfolk Sr High School & Massena High School","state_prov":"New York","team_number":229,"website":"http://www.team229robotics.com"},{"address":null,"city":"Shelton","country":"USA","gmaps_place_id":null,"gmaps_url":null,"key":"frc230","lat":null,"lng":null,"location_name":null,"motto":null,"name":"Raytheon Technologies Corporation/Sikorsky, Lockheed Martin/OEM Controls/Shelton Public School System/Hubbell/Intuitive Surgical/Logicbroker/Valley Community Foundation&Shelton High School","nickname":"Gaelhawks","postal_code":"06484","rookie_year":1999,"school_name":"Shelton High School","state_prov":"Connecticut","team_number":230,"website":"http://team230.org"},{"address":null,"city":"Old Lyme","country":"USA","gmaps_place_id":null,"gmaps_url":null,"key":"frc236","lat":null,"lng":null,"location_name":null,"motto":null,"name":"Lyme-Old Lyme Education Foundation (LOLEF)/Lyme-Old Lyme Public Schools/Brooks Associates Precision Machine Tools/Dominion Millstone Power Station & East Lyme High School & Old Lyme High School","nickname":"Techno-Ticks","postal_code":"06371","rookie_year":1999,"school_name":"East Lyme High School & Old Lyme High School","state_prov":"Connecticut","team_number":236,"website":"http://www.technoticks236.com"},{"address":null,"city":"Watertown","country":"USA","gmaps_place_id":null,"gmaps_url":null,"key":"frc237","lat":null,"lng":null,"location_name":null,"motto":null,"name":"Siemon Company/Raytheon Technologies Corporation/Lockheed Martin - Sikorsky/Watertown Foundation/Watertown Rotary Club/Precision Dip Coating/Mike Sorrenti&Watertown High School","nickname":"Black Magic Robotics","postal_code":"06795","rookie_year":1999,"school_name":"Watertown High School","state_prov":"Connecticut","team_number":237,"website":"http://team237.com/"},{"address":null,"city":"Colonie","country":"USA","gmaps_place_id":null,"gmaps_url":null,"key":"frc250","lat":null,"lng":null,"location_name":null,"motto":null,"name":"The Foundation for Engineering Education/Colonie Block/Metal Supermarkets/Electrical, Computer, and Systems Engineering Department at RPI/All U, Inc&Colonie Central High School","nickname":"The Dynamos","postal_code":"12205","rookie_year":1999,"school_name":"Colonie Central High School","state_prov":"New York","team_number":250,"website":"http://www.firstinspires.org/"},{"address":null,"city":"Kent","country":"USA","gmaps_place_id":null,"gmaps_url":null,"key":"frc2785","lat":null,"lng":null,"location_name":null,"motto":null,"name":"Kent School","nickname":"Prometheus","postal_code":"06757","rookie_year":2009,"school_name":"Kent School","state_prov":"Connecticut","team_number":2785,"website":"http://www.firstinspires.org/"},{"address":null,"city":"Latham","country":"USA","gmaps_place_id":null,"gmaps_url":null,"key":"frc2791","lat":null,"lng":null,"location_name":null,"motto":null,"name":"Atlas Copco/VM Choppy & Sons LLC/Tytalloy/Intuitive Foundation/IBM&Shaker High School","nickname":"Shaker Robotics","postal_code":"12110","rookie_year":2009,"school_name":"Shaker High School","state_prov":"New York","team_number":2791,"website":"http://www.team2791.org"},{"address":null,"city":"Woodbury","country":"USA","gmaps_place_id":null,"gmaps_url":null,"key":"frc2836","lat":null,"lng":null,"location_name":null,"motto":null,"name":"NASA / ionBank & Nonnewaug High School","nickname":"Team Beta","postal_code":"06798","rookie_year":2009,"school_name":"Nonnewaug High School","state_prov":"Connecticut","team_number":2836,"website":"http://www.teambeta.org"},{"address":null,"city":"Fresh Meadows","country":"USA","gmaps_place_id":null,"gmaps_url":null,"key":"frc3017","lat":null,"lng":null,"location_name":null,"motto":null,"name":"Walt Disney&Francis Lewis High School","nickname":"Patriots","postal_code":"11365","rookie_year":2009,"school_name":"Francis Lewis High School","state_prov":"New York","team_number":3017,"website":"http://www.flhsrobotics.com"},{"address":null,"city":"Stamford","country":"USA","gmaps_place_id":null,"gmaps_url":null,"key":"frc3104","lat":null,"lng":null,"location_name":null,"motto":null,"name":"Acad-Info Tech & Engineering","nickname":"The Cyber Rams","postal_code":"06905","rookie_year":2009,"school_name":"Acad-Info Tech & Engineering","state_prov":"Connecticut","team_number":3104,"website":"http://www.cyberrobotics.org"},{"address":null,"city":"Granby","country":"USA","gmaps_place_id":null,"gmaps_url":null,"key":"frc3146","lat":null,"lng":null,"location_name":null,"motto":null,"name":"Raytheon Technologies /JT Automation/Granby Lions Club/Checkered Flag Auto Center/Granby Public Schools/Granby Education Foundation/Four Dad's Pub/Vincent Funeral Homes/Arrow Concrete Products&Granby Memorial High School","nickname":"GRANBY GRUNTS","postal_code":"06035","rookie_year":2010,"school_name":"Granby Memorial High School","state_prov":"Connecticut","team_number":3146,"website":"https://granbygrunts.com"},{"address":null,"city":"Hartford","country":"USA","gmaps_place_id":null,"gmaps_url":null,"key":"frc3182","lat":null,"lng":null,"location_name":null,"motto":null,"name":"Hartford County UConn 4-H/MakerspaceCT/Comcast NBCUniversal/Medtronic/Raytheon Technologies/Lockheed Martin&4-H","nickname":"Athena's Warriors","postal_code":"06103","rookie_year":2010,"school_name":"4-H","state_prov":"Connecticut","team_number":3182,"website":"http://team3182.org/"},{"address":null,"city":"Bristol","country":"USA","gmaps_place_id":null,"gmaps_url":null,"key":"frc3461","lat":null,"lng":null,"location_name":null,"motto":null,"name":"The Arthur G. Russell Co./Hartford County 4-H & 4-H","nickname":"Operation PEACCE Robotics","postal_code":"06010","rookie_year":2011,"school_name":"4-H","state_prov":"Connecticut","team_number":3461,"website":"http://www.peacce.org"},{"address":null,"city":"Simsbury","country":"USA","gmaps_place_id":null,"gmaps_url":null,"key":"frc3464","lat":null,"lng":null,"location_name":null,"motto":null,"name":"Ensign-Bickford Aerospace & Defense Company (EBAD)/Friends of Sim-City&Simsbury High School","nickname":"Sim-City","postal_code":"06070","rookie_year":2011,"school_name":"Simsbury High School","state_prov":"Connecticut","team_number":3464,"website":"https://sites.google.com/simsburyschools.net/first-3464/"},{"address":null,"city":"Windham","country":"USA","gmaps_place_id":null,"gmaps_url":null,"key":"frc3467","lat":null,"lng":null,"location_name":null,"motto":null,"name":"Veloxion, Inc./Analog Devices/Bayer/BAE Systems/TE Connectivity/Intuitive Foundation/PTC/NH Department of Education/A+A Floral/Windup Robotics 4-H Club&Windham High School","nickname":"Windham Windup","postal_code":"03087","rookie_year":2011,"school_name":"Windham High School","state_prov":"New Hampshire","team_number":3467,"website":"https://www.team3467.org"},{"address":null,"city":"Waterbury","country":"USA","gmaps_place_id":null,"gmaps_url":null,"key":"frc3525","lat":null,"lng":null,"location_name":null,"motto":null,"name":"NASA/Lockheed Martin Corporation /Comcast Corporation/Bitworks LLC /Frontier Communication /Walmart /ECUA Remodeling LLC /Manz Automotive Dist/Harwinton Tree Service, LLC/Gowans-Knight Co., Inc/JoVek Tool & Die Manufacturing/Afable Consulting/The Nelson Heat Treating Co. /UniMetal/Atlantic Steel & Processing & John F. Kennedy High School","nickname":"The Nuts & Bolts of Fury","postal_code":"06708","rookie_year":2011,"school_name":"John F. Kennedy High School","state_prov":"Connecticut","team_number":3525,"website":"http://www.frc3525.com"},{"address":null,"city":"Storrs Mansfield","country":"USA","gmaps_place_id":null,"gmaps_url":null,"key":"frc3555","lat":null,"lng":null,"location_name":null,"motto":null,"name":"UTC/UConn&4-H Tolland County","nickname":"Aluminati","postal_code":"06268","rookie_year":2011,"school_name":"4-H Tolland County","state_prov":"Connecticut","team_number":3555,"website":"http://www.firstinspires.org/"},{"address":null,"city":"Bridgeport","country":"USA","gmaps_place_id":null,"gmaps_url":null,"key":"frc3634","lat":null,"lng":null,"location_name":null,"motto":null,"name":"ACCESS Educational Services, Inc./Bigelow Tea/Lockheed Martin Company/Altice USA & Family/Community","nickname":"Spark City","postal_code":"06610","rookie_year":2011,"school_name":"Family/Community","state_prov":"Connecticut","team_number":3634,"website":"http://www.sparkcityrobotics.com/"},{"address":null,"city":"Middletown","country":"USA","gmaps_place_id":null,"gmaps_url":null,"key":"frc3654","lat":null,"lng":null,"location_name":null,"motto":null,"name":"Howmet Aerospace/AMC Services/Pratt and Whitney/A Wizard Did It/Tsunami Tsolutions/Lauren States/Andy Kasznay&Mercy High School","nickname":"TechTigers","postal_code":"06457","rookie_year":2011,"school_name":"Mercy High School","state_prov":"Connecticut","team_number":3654,"website":"http://techtigers3654.org"},{"address":null,"city":"New Britain","country":"USA","gmaps_place_id":null,"gmaps_url":null,"key":"frc3718","lat":null,"lng":null,"location_name":null,"motto":null,"name":"United Technologies/Stanley-Black & Decker & E. C. Goodwin Technical High School","nickname":"Junkyard Battalion","postal_code":"06053","rookie_year":2011,"school_name":null,"state_prov":"Connecticut","team_number":3718,"website":"http:///roboticsteam3718.org/wp"},{"address":null,"city":"New London ","country":"USA","gmaps_place_id":null,"gmaps_url":null,"key":"frc3719","lat":null,"lng":null,"location_name":null,"motto":null,"name":"Dominion Millstone Power Station/Detotec/New London Public Schools & 4-H & Science and Technology Magnet High School of Southeastern Connecticut & New London High School","nickname":"STEM Whalers","postal_code":"06320","rookie_year":2011,"school_name":"4-H & Science and Technology Magnet High School of Southeastern Connecticut & New London High School","state_prov":"Connecticut","team_number":3719,"website":"http:///www.team3719.org"},{"address":null,"city":"Winchester","country":"USA","gmaps_place_id":null,"gmaps_url":null,"key":"frc4055","lat":null,"lng":null,"location_name":null,"motto":null,"name":"United Technologies / Whiting Mills LLC / RoBrand Products, Inc. & Northwestern Regional High Sch","nickname":"NRG","postal_code":"06098","rookie_year":2012,"school_name":"Northwestern Regional High Sch","state_prov":"Connecticut","team_number":4055,"website":"http://www.frc4055.org"},{"address":null,"city":"Ossining","country":"USA","gmaps_place_id":null,"gmaps_url":null,"key":"frc4122","lat":null,"lng":null,"location_name":null,"motto":null,"name":"Ossining Union Free School District/Haas Foudnation /Optimum/Department of Defense/Newscorp/Ossining Community Businesses&Ossining High School","nickname":"Ossining O-Bots","postal_code":"10562","rookie_year":2012,"school_name":"Ossining High School","state_prov":"New York","team_number":4122,"website":"http://www.firstinspires.org/"},{"address":null,"city":"Amsterdam","country":"USA","gmaps_place_id":null,"gmaps_url":null,"key":"frc4134","lat":null,"lng":null,"location_name":null,"motto":null,"name":"Rayco of Schenectady & Amsterdam High School-RPI","nickname":"RoboRams","postal_code":"12010","rookie_year":2012,"school_name":null,"state_prov":"NY","team_number":4134,"website":null},{"address":null,"city":"Leominster","country":"USA","gmaps_place_id":null,"gmaps_url":null,"key":"frc549","lat":null,"lng":null,"location_name":null,"motto":null,"name":"Raytheon/BOSE/Solidus Technical Solutions/Steel Fab inc & Leominster High School","nickname":"DevilDawgs","postal_code":"01453","rookie_year":2001,"school_name":null,"state_prov":"MA","team_number":549,"website":"http://www.devildawgs549.com"},{"address":null,"city":"New Haven","country":"USA","gmaps_place_id":null,"gmaps_url":null,"key":"frc558","lat":null,"lng":null,"location_name":null,"motto":null,"name":"Yale University/United Illuminating-Avangrid/United Technologies/Comcast NBCUniversal/Parker Hannifin/Community Foundation for Greater New Haven & Hill Regional Career Magnet HS","nickname":"Elm City Robo Squad","postal_code":"06519","rookie_year":2001,"school_name":"Hill Regional Career Magnet HS","state_prov":"Connecticut","team_number":558,"website":"http://www.elmcityrobosquad.org/"},{"address":null,"city":"Windsor","country":"USA","gmaps_place_id":null,"gmaps_url":null,"key":"frc571","lat":null,"lng":null,"location_name":null,"motto":null,"name":"The Town of Windsor Connecticut/RTX-Raytheon&Windsor High School","nickname":"Team Paragon","postal_code":"06095","rookie_year":2001,"school_name":"Windsor High School","state_prov":"Connecticut","team_number":571,"website":"http://www.team-paragon.org/"},{"address":null,"city":"Whitinsville","country":"USA","gmaps_place_id":null,"gmaps_url":null,"key":"frc663","lat":null,"lng":null,"location_name":null,"motto":null,"name":"WRT Management Corp./Bach Knives/Koopman Lumber&Whitinsville Christian School","nickname":"Robonauts","postal_code":"01588","rookie_year":2001,"school_name":"Whitinsville Christian School","state_prov":"Massachusetts","team_number":663,"website":"http://team663.org"},{"address":null,"city":"New York","country":"USA","gmaps_place_id":null,"gmaps_url":null,"key":"frc694","lat":null,"lng":null,"location_name":null,"motto":null,"name":"Stuyvesant High School Parents' Association/Belliveau Family/ConEdison/Bloomberg/ABB Inc./L3Harris Technologies/Google/Amazon/Dr. Joe Ricci/Wong Family&Stuyvesant High School","nickname":"StuyPulse","postal_code":"10282","rookie_year":2001,"school_name":"Stuyvesant High School","state_prov":"New York","team_number":694,"website":"http://www.stuypulse.com"},{"address":null,"city":"Bronx","country":"USA","gmaps_place_id":null,"gmaps_url":null,"key":"frc743","lat":null,"lng":null,"location_name":null,"motto":null,"name":"Sony/Bloomberg/Con Edison & HS of Computers & Technology","nickname":"Technobots","postal_code":"10467","rookie_year":2002,"school_name":"HS of Computers & Technology","state_prov":"New York","team_number":743,"website":"https://www.hscomputech.com"},{"address":null,"city":"Feeding Hills","country":"USA","gmaps_place_id":null,"gmaps_url":null,"key":"frc839","lat":null,"lng":null,"location_name":null,"motto":null,"name":"NASA/Collins Aerospace/Agawam Robotics Education Association Inc./TW Metals/Agawam Public Schools/Anthony Russo/General Dynamics Mission Systems/The Center for Surrogacy and Egg Donation/Agawam High School Class of 1969&Agawam Senior High School","nickname":"Rosie Robotics","postal_code":"01001","rookie_year":2002,"school_name":"Agawam Senior High School","state_prov":"Massachusetts","team_number":839,"website":"http://rosie.agawamrobotics.org/"},{"address":null,"city":"Middlesex","country":"USA","gmaps_place_id":null,"gmaps_url":null,"key":"frc869","lat":null,"lng":null,"location_name":null,"motto":null,"name":"Ansun Protective Metals / Micro / Veolia & Middlesex High School","nickname":"PowerCord","postal_code":"08846","rookie_year":2002,"school_name":null,"state_prov":"New Jersey","team_number":869,"website":"http://www.frc869.com"},{"address":null,"city":"White River Junction","country":"USA","gmaps_place_id":null,"gmaps_url":null,"key":"frc95","lat":null,"lng":null,"location_name":null,"motto":null,"name":"Hartford Area Career and Technology Center/Progressive Manufacturing/Hypertherm/Fujifilm Dimatix/OnShape/Dodd Stacy&Hartford Area Career-Tech Ctr","nickname":"Grasshoppers","postal_code":"05001","rookie_year":1997,"school_name":"Hartford Area Career-Tech Ctr","state_prov":"Vermont","team_number":95,"website":"http://www.frcteam95.org/wp/"},{"address":null,"city":"Cheshire","country":"USA","gmaps_place_id":null,"gmaps_url":null,"key":"frc999","lat":null,"lng":null,"location_name":null,"motto":null,"name":"OTIS/Cheshire Public Schools/East Coast Mechanical/Northrop Grumman/Medtronic/Haas Foundation&Cheshire High School","nickname":"MechaRAMS","postal_code":"06410","rookie_year":2002,"school_name":"Cheshire High School","state_prov":"Connecticut","team_number":999,"website":"http://cheshirerobotics.org"}]
